[
    {
        "id": "valletta",
        "name": "Valletta",
        "category": "historic",
        "wikipediaTitle": "Valletta",
        "description": "Malta's Baroque capital and UNESCO World Heritage city. Explore the Grand Harbour, St John's Co-Cathedral, and the Upper Barrakka Gardens.",
        "tags": ["Historic", "UNESCO site", "30 min by bus"],
        "lat": 35.8997,
        "lng": 14.5147
    },
    {
        "id": "mdina",
        "name": "Mdina",
        "category": "historic",
        "wikipediaTitle": "Mdina",
        "description": "The Silent City — a medieval walled town perched on a hilltop. Best visited early morning before the crowds. Stunning views across the island.",
        "tags": ["Historic", "Medieval", "Bus 51, 52"],
        "lat": 35.8878,
        "lng": 14.4025
    },
    {
        "id": "hagarQim",
        "name": "Ħaġar Qim",
        "category": "historic",
        "wikipediaTitle": "Ħaġar Qim",
        "description": "One of the oldest free-standing structures in the world, dating to 3600–3200 BC. A UNESCO World Heritage prehistoric temple with an open-air visitor centre.",
        "tags": ["Historic", "UNESCO site", "Prehistoric"],
        "lat": 35.8271,
        "lng": 14.4416
    },
    {
        "id": "fortStAngelo",
        "name": "Fort St Angelo",
        "category": "historic",
        "wikipediaTitle": "Fort St Angelo",
        "description": "A formidable medieval fortress in Birgu that played a pivotal role in the Great Siege of Malta in 1565. Offers panoramic views over the Grand Harbour.",
        "tags": ["Historic", "Fortress", "Grand Harbour views"],
        "lat": 35.8925,
        "lng": 14.52
    },
    {
        "id": "gozo",
        "name": "Gozo Island",
        "category": "nature",
        "wikipediaTitle": "Gozo",
        "description": "Malta's quieter sister island. Take the 25-minute ferry from Ċirkewwa. Visit the Citadella, Azure Window site, and swim at Ramla Bay.",
        "tags": ["Nature", "Day trip", "Ferry required"],
        "lat": 36.0444,
        "lng": 14.2396
    },
    {
        "id": "dingli",
        "name": "Dingli Cliffs",
        "category": "nature",
        "wikipediaTitle": "Dingli Cliffs",
        "description": "The highest point in Malta at 253 metres above sea level. Breathtaking clifftop walks with dramatic views over the Mediterranean. Best at sunset.",
        "tags": ["Nature", "Cliffs", "Walking"],
        "lat": 35.8572,
        "lng": 14.3842
    },
    {
        "id": "buskett",
        "name": "Buskett Gardens",
        "category": "nature",
        "wikipediaTitle": "Buskett",
        "description": "Malta's only woodland area — a rare and peaceful forested retreat in this sun-scorched island. Perfect for shaded walks on hot days.",
        "tags": ["Nature", "Gardens", "Shaded walk"],
        "lat": 35.8671,
        "lng": 14.4011
    },
    {
        "id": "popeyeVillage",
        "name": "Popeye Village",
        "category": "nature",
        "wikipediaTitle": "Popeye Village",
        "description": "A quirky film set built for the 1980 Popeye musical at Anchor Bay. Now a family attraction with swimming and boat trips in a picturesque rocky bay.",
        "tags": ["Nature", "Family friendly", "Anchor Bay"],
        "lat": 35.9538,
        "lng": 14.3217
    },
    {
        "id": "blueLagoon",
        "name": "Blue Lagoon",
        "category": "beaches",
        "wikipediaTitle": "Blue Lagoon (Malta)",
        "description": "Malta's most famous swimming spot on the tiny island of Comino. Crystal-clear turquoise water, perfect for snorkelling. Boat trips from Ċirkewwa or St Paul's Bay.",
        "tags": ["Beaches", "Comino island", "Boat trip"],
        "lat": 36.0131,
        "lng": 14.3364
    },
    {
        "id": "goldenBay",
        "name": "Golden Bay",
        "category": "beaches",
        "wikipediaTitle": "Golden Bay, Malta",
        "description": "One of Malta's most popular sandy beaches on the northwest coast. Backed by gentle dunes with sunbeds, a café, and regular bus connections.",
        "tags": ["Beaches", "Sandy beach", "Bus 223"],
        "lat": 35.9248,
        "lng": 14.3339
    },
    {
        "id": "mellieha",
        "name": "Mellieħa Bay",
        "category": "beaches",
        "wikipediaTitle": "Mellieħa Bay",
        "description": "Malta's largest sandy beach — a wide, shallow, family-friendly bay in the north of the island. Great for swimming and watersports. Easy to reach by bus.",
        "tags": ["Beaches", "Sandy beach", "Shallow water"],
        "lat": 35.963,
        "lng": 14.3511
    },
    {
        "id": "stPetersPool",
        "name": "St Peter's Pool",
        "category": "beaches",
        "wikipediaTitle": "St. Peter's Pool",
        "description": "A stunning natural limestone pool carved by the sea on Malta's south coast. No sand — just dramatic rocky ledges for jumping and crystal-clear deep water.",
        "tags": ["Beaches", "Rock pool", "Swimming"],
        "lat": 35.8265,
        "lng": 14.5534
    },
    {
        "id": "marsaxlokk",
        "name": "Marsaxlokk",
        "category": "village",
        "wikipediaTitle": "Marsaxlokk",
        "description": "A traditional fishing village famous for its colourful luzzu boats. Sunday market is a highlight — fresh fish, local produce, and crafts.",
        "tags": ["Village", "Sunday market", "Bus 81, 85"],
        "lat": 35.8414,
        "lng": 14.5431
    },
    {
        "id": "sliema",
        "name": "Sliema & St Julian's",
        "category": "village",
        "wikipediaTitle": "Sliema",
        "description": "Malta's modern seafront strip. Great for restaurants, cafés, and evening walks along the promenade. Vibrant nightlife in Paceville.",
        "tags": ["Restaurants", "Seafront", "Easy to reach"],
        "lat": 35.9117,
        "lng": 14.5022
    }
]
