[
    {
        "id": "valletta",
        "name": "Valletta",
        "category": "historic",
        "wikipediaTitle": "Valletta",
        "localImage": "/images/places/valletta.jpg",
        "description": "Malta's Baroque capital and UNESCO World Heritage city. Explore the Grand Harbour, St John's Co-Cathedral, and the Upper Barrakka Gardens.",
        "tags": ["Historic", "UNESCO site"],
        "lat": 35.8997,
        "lng": 14.5147
    },
    {
        "id": "mdina",
        "name": "Mdina",
        "category": "historic",
        "wikipediaTitle": "Mdina",
        "localImage": "/images/places/mdina.jpg",
        "description": "The Silent City — a medieval walled town perched on a hilltop. Best visited early morning before the crowds. Stunning views across the island.",
        "tags": ["Historic", "Medieval"],
        "lat": 35.8878,
        "lng": 14.4025
    },
    {
        "id": "gozo",
        "name": "Gozo Island",
        "category": "nature",
        "wikipediaTitle": "Gozo",
        "localImage": "/images/places/gozo.jpg",
        "description": "Malta's quieter sister island. Take the 25-minute ferry from Ċirkewwa. Visit the Citadella, swim at Ramla Bay, and explore dramatic coastal scenery.",
        "tags": ["Nature", "Day trip", "Ferry required"],
        "lat": 36.0444,
        "lng": 14.2396
    },
    {
        "id": "dingli",
        "name": "Dingli Cliffs",
        "category": "nature",
        "wikipediaTitle": "Dingli",
        "localImage": "/images/places/dingli.jpg",
        "description": "The highest point in Malta at 253 metres above sea level. Breathtaking clifftop walks with dramatic views over the Mediterranean. Best at sunset.",
        "tags": ["Nature", "Cliffs", "Walking"],
        "lat": 35.8572,
        "lng": 14.3842
    },
    {
        "id": "peterspool",
        "name": "St. Peter's Pool",
        "category": "beaches",
        "wikipediaTitle": "St Peter's Pool, Malta",
        "localImage": "/images/places/PetersPool.jpg",
        "description": "The bay is a common attraction among tourists looking to snorkel",
        "tags": ["Beach", "Rocky beach","Snorkeling"],
        "lat": 35.83343513246067,
        "lng": 14.561811677423137
    },
    {
        "id": "goldenBay",
        "name": "Golden Bay",
        "category": "beaches",
        "wikipediaTitle": "Golden Bay (Malta)",
        "localImage": "/images/places/goldenBay.jpg",
        "description": "One of Malta's most popular sandy beaches on the northwest coast. Backed by gentle dunes with sunbeds, a café, and regular bus connections.",
        "tags": ["Beach", "Sandy beach"],
        "lat": 35.93404759452658,
        "lng": 14.344520960092833
    },
    {
        "id": "marsaxlokk",
        "name": "Marsaxlokk",
        "wikipediaTitle": "Marsaxlokk",
        "localImage": "/images/places/marsaxlokk.jpg",
        "description": "A traditional fishing village famous for its colourful luzzu boats. The Sunday market is a highlight — fresh fish, local produce, and crafts.",
        "tags": ["Sunday market"],
        "lat": 35.8414,
        "lng": 14.5431
    },
    {
        "id": "sliema",
        "name": "Sliema",
        "wikipediaTitle": "Sliema",
        "localImage": "/images/places/sliema.jpg",
        "description": "Malta's modern seafront strip. Great for restaurants, cafés, and evening walks along the promenade. Easy to reach by bus or the Valletta ferry.",
        "tags": ["Shopping","Restaurants", "Seafront"],
        "lat": 35.9117,
        "lng": 14.5022
    },
    {
        "id": "qarabba",
        "name": "Qarabba Bay",
        "category":"beaches",
        "wikipediaTitle": "",
        "localImage": "/images/places/qarraba.png",
        "description": "Nestled on Malta’s northern coast, Qarraba Bay offers a serene and picturesque escape from the island’s busier hotspots",
        "tags": ["Beach","Rocky Beach"],
        "lat": 35.927203346882145,
        "lng": 14.343267226480073
    },
    {
        "id": "stgeorge",
        "name": "St. Georges Bay",
        "category":"beaches",
        "wikipediaTitle": "",
        "localImage": "/images/places/george.png",
        "description": "Located in the heart of the entertainment mecca known as Paceville, it is the location where many tourists and students like to take a dip into our clean Maltese waters.",
        "tags": ["Beach","Sandy Beach"],
        "lat": 35.92594816413694,
        "lng": 14.487860122024777
    },
    {
        "id": "ghadira",
        "name": "Għadira Bay",
        "category":"beaches",
        "wikipediaTitle": "",
        "localImage": "/images/places/ghadira.png",
        "description": "Located on Malta’s northern coast, Għadira Bay is a stunning beach known for its white sands and clear waters. Whether you’re seeking relaxation or water activities, this picturesque spot is perfect for anyone looking to enjoy a day in the sun along the Mediterranean",
        "tags": ["Beach","Sandy Beach"],
        "lat": 35.969594018559704,
        "lng": 14.350580361474064
    },
    {
        "id": "prettybay",
        "name": "Pretty Bay",
        "category":"beaches",
        "wikipediaTitle": "",
        "localImage": "/images/places/prettybay.png",
        "description": "Known for its light blue and green waters, the beach is a popular spot for locals, particularly during the summer season. Despite being artificially filled with sand, the beach maintains a natural charm that draws visitors from far and wide.",
        "tags": ["Beach","Sandy Beach", "Near Restaurants"],
        "lat": 35.82493252395325,
        "lng": 14.529302555095597
    },
    {
        "id": "stthomas",
        "name": "St Thomas Bay",
        "category":"beaches",
        "wikipediaTitle": "",
        "localImage": "/images/places/stthomas.png",
        "description": "St Thomas Bay, located in Marsascala, Malta, is a stunning natural beach known for its breathtaking views, clear turquoise waters, and golden sands. The beach is nestled among high cliffs and rocky outcrops, adding to its picturesque scenery",
        "tags": ["Beach","Sandy Beach", "Near Restaurants"],
        "lat": 35.85532681441958,
        "lng": 14.56569133997245
    }
]
